{
  "type": "FeatureCollection",
  "features": [
    {
      "type": "Feature",
      "geometry": {
        "type": "Point",
        "coordinates": [51.933368, 15.47696]
      },
      "properties": {
        "city": "Zielona Góra",
        "name": "Francuska/Dunikowskiego"
      }
    },
    {
      "type": "Feature",
      "geometry": {
        "type": "Point",
        "coordinates": [51.952502, 15.48514]
      },
      "properties": {
        "city": "Zielona Góra",
        "name": "Zjednoczenia/Dekoracyjna"
      }
    },
    {
      "type": "Feature",
      "geometry": {
        "type": "Point",
        "coordinates": [51.925131, 15.514117]
      },
      "properties": {
        "city": "Zielona Góra",
        "name": "Nowa/Browarna"
      }
    },
    {
      "type": "Feature",
      "geometry": {
        "type": "Point",
        "coordinates": [51.905833, 15.507264]
      },
      "properties": {
        "city": "Zielona Góra",
        "name": "Nowojędrzychowska / Makowa"
      }
    },
    {
      "type": "Feature",
      "geometry": {
        "type": "Point",
        "coordinates": [51.943366, 15.509078]
      },
      "properties": {
        "city": "Zielona Góra",
        "name": "Plac Bohaterów"
      }
    },
    {
      "type": "Feature",
      "geometry": {
        "type": "Point",
        "coordinates": [51.978576, 15.486797]
      },
      "properties": {
        "city": "Zielona Góra",
        "name": "Odrzańska (Łężyca)"
      }
    },
    {
      "type": "Feature",
      "geometry": {
        "type": "Point",
        "coordinates": [51.958425, 15.496729]
      },
      "properties": {
        "city": "Zielona Góra",
        "name": "Batorego/Zamoyskiego"
      }
    },
    {
      "type": "Feature",
      "geometry": {
        "type": "Point",
        "coordinates": [51.945175, 15.52091]
      },
      "properties": {
        "city": "Zielona Góra",
        "name": "Wyspiańskiego (pływalnia)"
      }
    },
    {
      "type": "Feature",
      "geometry": {
        "type": "Point",
        "coordinates": [51.946735, 15.510964]
      },
      "properties": {
        "city": "Zielona Góra",
        "name": "Dworcowa (dworzec PKS)"
      }
    },
    {
      "type": "Feature",
      "geometry": {
        "type": "Point",
        "coordinates": [51.947139, 15.513638]
      },
      "properties": {
        "city": "Zielona Góra",
        "name": "Dworcowa (dworzec PKP)"
      }
    },
    {
      "type": "Feature",
      "geometry": {
        "type": "Point",
        "coordinates": [51.969102, 15.534448]
      },
      "properties": {
        "city": "Zielona Góra",
        "name": "Krępowska (Chynów)"
      }
    },
    {
      "type": "Feature",
      "geometry": {
        "type": "Point",
        "coordinates": [51.956863, 15.523532]
      },
      "properties": {
        "city": "Zielona Góra",
        "name": "Sulechowska (CRS)"
      }
    },
    {
      "type": "Feature",
      "geometry": {
        "type": "Point",
        "coordinates": [51.935897, 15.506481]
      },
      "properties": {
        "city": "Zielona Góra",
        "name": "Konstytucji 3 Maja (Wenus)"
      }
    },
    {
      "type": "Feature",
      "geometry": {
        "type": "Point",
        "coordinates": [51.936806, 15.503058]
      },
      "properties": {
        "city": "Zielona Góra",
        "name": "Plac Słowiański"
      }
    },
    {
      "type": "Feature",
      "geometry": {
        "type": "Point",
        "coordinates": [51.953189, 15.498984]
      },
      "properties": {
        "city": "Zielona Góra",
        "name": "Batorego/Obywatelska"
      }
    },
    {
      "type": "Feature",
      "geometry": {
        "type": "Point",
        "coordinates": [51.933249, 15.498337]
      },
      "properties": {
        "city": "Zielona Góra",
        "name": "1 Maja (Zielona Strzała)"
      }
    },
    {
      "type": "Feature",
      "geometry": {
        "type": "Point",
        "coordinates": [51.929966, 15.492318]
      },
      "properties": {
        "city": "Zielona Góra",
        "name": "Wyszyńskiego/Wiśniowa"
      }
    },
    {
      "type": "Feature",
      "geometry": {
        "type": "Point",
        "coordinates": [51.928661, 15.487514]
      },
      "properties": {
        "city": "Zielona Góra",
        "name": "Zawadzkiego/Cyryla i Metodego"
      }
    },
    {
      "type": "Feature",
      "geometry": {
        "type": "Point",
        "coordinates": [51.931494, 15.485354]
      },
      "properties": {
        "city": "Zielona Góra",
        "name": "Wyszyńskiego/Monte Cassino"
      }
    },
    {
      "type": "Feature",
      "geometry": {
        "type": "Point",
        "coordinates": [51.935456, 15.481439]
      },
      "properties": {
        "city": "Zielona Góra",
        "name": "Wyszyńskiego/Słowacka"
      }
    },
    {
      "type": "Feature",
      "geometry": {
        "type": "Point",
        "coordinates": [51.93766, 15.488124]
      },
      "properties": {
        "city": "Zielona Góra",
        "name": "Krośnieńska (Zielona Strzała)"
      }
    },
    {
      "type": "Feature",
      "geometry": {
        "type": "Point",
        "coordinates": [51.945975, 15.454651]
      },
      "properties": {
        "city": "Zielona Góra",
        "name": "Cisowa"
      }
    },
    {
      "type": "Feature",
      "geometry": {
        "type": "Point",
        "coordinates": [51.920544, 15.5002]
      },
      "properties": {
        "city": "Zielona Góra",
        "name": "Botaniczna (Ogród botaniczny - Mini ZOO)"
      }
    },
    {
      "type": "Feature",
      "geometry": {
        "type": "Point",
        "coordinates": [51.943944, 15.477801]
      },
      "properties": {
        "city": "Zielona Góra",
        "name": "Zacisze/Prosta"
      }
    },
    {
      "type": "Feature",
      "geometry": {
        "type": "Point",
        "coordinates": [51.944455, 15.470365]
      },
      "properties": {
        "city": "Zielona Góra",
        "name": "Agrestowa"
      }
    },
    {
      "type": "Feature",
      "geometry": {
        "type": "Point",
        "coordinates": [51.939154, 15.474271]
      },
      "properties": {
        "city": "Zielona Góra",
        "name": "Wojska Polskiego (UZ)"
      }
    },
    {
      "type": "Feature",
      "geometry": {
        "type": "Point",
        "coordinates": [51.937964, 15.47705]
      },
      "properties": {
        "city": "Zielona Góra",
        "name": "Kraljevska"
      }
    },
    {
      "type": "Feature",
      "geometry": {
        "type": "Point",
        "coordinates": [51.939282, 15.4823]
      },
      "properties": {
        "city": "Zielona Góra",
        "name": "Wojska Polskiego/Wyszyńskiego"
      }
    },
    {
      "type": "Feature",
      "geometry": {
        "type": "Point",
        "coordinates": [51.931691, 15.516136]
      },
      "properties": {
        "city": "Zielona Góra",
        "name": "Morelowa"
      }
    },
    {
      "type": "Feature",
      "geometry": {
        "type": "Point",
        "coordinates": [51.933619, 15.555892]
      },
      "properties": {
        "city": "Zielona Góra",
        "name": "Osiedle Śląskie"
      }
    },
    {
      "type": "Feature",
      "geometry": {
        "type": "Point",
        "coordinates": [51.937489, 15.559479]
      },
      "properties": {
        "city": "Zielona Góra",
        "name": "Osiedle Pomorskie"
      }
    },
    {
      "type": "Feature",
      "geometry": {
        "type": "Point",
        "coordinates": [51.942213, 15.528763]
      },
      "properties": {
        "city": "Zielona Góra",
        "name": "Szafrana (UZ)"
      }
    },
    {
      "type": "Feature",
      "geometry": {
        "type": "Point",
        "coordinates": [51.93941, 15.528694]
      },
      "properties": {
        "city": "Zielona Góra",
        "name": "Podgórna (UZ)"
      }
    },
    {
      "type": "Feature",
      "geometry": {
        "type": "Point",
        "coordinates": [51.939487, 15.524012]
      },
      "properties": {
        "city": "Zielona Góra",
        "name": "Podgórna/Waryńskiego"
      }
    },
    {
      "type": "Feature",
      "geometry": {
        "type": "Point",
        "coordinates": [51.940114, 15.513041]
      },
      "properties": {
        "city": "Zielona Góra",
        "name": "Rondo 11 Listopada"
      }
    },
    {
      "type": "Feature",
      "geometry": {
        "type": "Point",
        "coordinates": [51.939505, 15.502008]
      },
      "properties": {
        "city": "Zielona Góra",
        "name": "Wojska Polskiego/Reja"
      }
    },
    {
      "type": "Feature",
      "geometry": {
        "type": "Point",
        "coordinates": [51.940938, 15.504489]
      },
      "properties": {
        "city": "Zielona Góra",
        "name": "Kupiecka/Wojska Polskiego"
      }
    },
    {
      "type": "Feature",
      "geometry": {
        "type": "Point",
        "coordinates": [51.955939, 15.514996]
      },
      "properties": {
        "city": "Zielona Góra",
        "name": "Zdrojowa"
      }
    },
    {
      "type": "Feature",
      "geometry": {
        "type": "Point",
        "coordinates": [51.940303, 15.506537]
      },
      "properties": {
        "city": "Zielona Góra",
        "name": "Kupiecka (Bachus)"
      }
    },
    {
      "type": "Feature",
      "geometry": {
        "type": "Point",
        "coordinates": [51.937946, 15.504805]
      },
      "properties": {
        "city": "Zielona Góra",
        "name": "Stary Rynek/Jana Sobieskiego"
      }
    }
  ]
}
